stop_id,stop_code,stop_name,stop_desc,stop_lat,stop_lon,zone_id,stop_url,location_type,parent_station,stop_timezone,wheelchair_boarding,platform_code,level_id
1,,Dilshad Garden,,28.675991,77.321495,,,0,,,0,,
2,,Jhilmil,,28.675648,77.312393,,,0,,,0,,
3,,Mansrover park,,28.675386811101184,77.30085609352078,,,0,,,0,,
4,,Shahdara,,28.67345713451482,77.28988398120435,,,0,,,0,,
5,,Welcome,,28.672374617453315,77.27708057231573,,,0,,,0,,
6,,Seelam Pur,,28.6697906510824,77.26679222198281,,,0,,,0,,
7,,Shastri Park,,28.668451,77.250404,,,0,,,0,,
8,,Kashmere Gate,,28.668684562212466,77.22805665264768,,,0,,,0,,
9,,Tis Hazari,,28.667137,77.216721,,,0,,,0,,
10,,Pul Bangash,,28.666406453031247,77.20742476770182,,,0,,,0,,
11,,Pratap Nagar,,28.66670769345026,77.19888995994792,,,0,,,0,,
12,,Shastri Nagar,,28.670135,77.181679,,,0,,,0,,
13,,Inderlok,,28.673452,77.170235,,,0,,,0,,
14,,Kanhaiya Nagar,,28.682399238894813,77.16477705319627,,,0,,,0,,
15,,Keshav Puram,,28.688944,77.161774,,,0,,,0,,
16,,Netaji Subash Place,,28.6947286779568,77.15427958706769,,,0,,,0,,
17,,Kohat Enclave,,28.697943,77.140465,,,0,,,0,,
18,,Pitampura,,28.70318,77.132355,,,0,,,0,,
19,,Rohini East,,28.707941,77.125732,,,0,,,0,,
20,,Rohini West,,28.715008,77.115746,,,0,,,0,,
21,,Rithala,,28.72080395089113,77.10718988376603,,,0,,,0,,
22,,Mundka,,28.682446300582598,77.03058163453981,,,0,,,0,,
23,,Rajdhani Park,,28.682217,77.043869,,,0,,,0,,
24,,Nangloi Railway Station,,28.682091,77.05619,,,0,,,0,,
25,,Nangloi,,28.682356,77.064728,,,0,,,0,,
26,,Maharaja Surajmal Stadium,,28.681833,77.073891,,,0,,,0,,
27,,Udyog Nagar,,28.68110032796572,77.08085216201273,,,0,,,0,,
28,,Peera Garhi,,28.67972,77.092491,,,0,,,0,,
29,,Paschim Vihar (West),,28.678539,77.102119,,,0,,,0,,
30,,Paschim Vihar (East),,28.677305,77.112251,,,0,,,0,,
31,,Madipur,,28.67647400347472,77.1193659942844,,,0,,,0,,
32,,Shivaji Park,,28.67501029163145,77.13048564467695,,,0,,,0,,
33,,Punjabi Bagh,,28.672943,77.146011,,,0,,,0,,
34,,Ashok Park Main,,28.671572,77.155159,,,0,,,0,,
35,,Satguru Ram Singh Marg,,28.662057197988577,77.15770167927745,,,0,,,0,,
36,,Samaypur Badli,,28.74464334933959,77.13827184672861,,,0,,,0,,
37,,Rohini Sector 18-19,,28.73838767991496,77.139908959432,,,0,,,0,,
38,,Haiderpur Badli Mor,,28.730033660647283,77.14909482610348,,,0,,,0,,
39,,Jahangirpuri,,28.725997526973707,77.16266103090314,,,0,,,0,,
40,,Adarsh Nagar,,28.716569866468934,77.17045000247825,,,0,,,0,,
41,,Azadpur,,28.70704725481932,77.18039310308109,,,0,,,0,,
42,,Model Town,,28.702833,77.193764,,,0,,,0,,
43,,Guru Tegh Bahadur Nagar,,28.698140193731195,77.20641080288351,,,0,,,0,,
44,,Vishwavidyalaya,,28.69503924813115,77.21472094208251,,,0,,,0,,
45,,Vidhan Sabha,,28.686295875022505,77.22174356978002,,,0,,,0,,
46,,Civil Lines,,28.676945,77.224953,,,0,,,0,,
47,,Chandni Chowk,,28.658423266430635,77.23034221054345,,,0,,,0,,
48,,Chawri Bazar,,28.649253148618232,77.22651723016372,,,0,,,0,,
49,,New Delhi,,28.64348140046585,77.22275093534445,,,0,,,0,,
50,,Rajiv Chowk,,28.632713840425765,77.21931251116006,,,0,,,0,,
51,,Patel Chowk,,28.623395501699108,77.2145018868985,,,0,,,0,,
52,,Central Secretariat,,28.61587995798385,77.21228909419712,,,0,,,0,,
53,,Udyog Bhawan,,28.60950356746319,77.21179751016794,,,0,,,0,,
54,,Lok Kalyan Marg,,28.59736663519361,77.21111032592323,,,0,,,0,,
55,,Jorbagh,,28.586599056358885,77.21254776427587,,,0,,,0,,
56,,Dilli Haat - INA,,28.573649182044115,77.2076036866906,,,0,,,0,,
57,,AIIMS,,28.56685091985541,77.20782729124197,,,0,,,0,,
58,,Green Park,,28.559853,77.206902,,,0,,,0,,
59,,Hauz Khas,,28.54334335713626,77.2050364417592,,,0,,,0,,
60,,Malviya Nagar,,28.529092081627287,77.2048349497373,,,0,,,0,,
61,,Saket,,28.521173873550836,77.20227044091024,,,0,,,0,,
62,,Qutab Minar,,28.51294867655712,77.18644647553414,,,0,,,0,,
63,,Chhattarpur,,28.506584,77.174866,,,0,,,0,,
64,,Sultanpur,,28.499214,77.161362,,,0,,,0,,
65,,Ghitorni,,28.49383,77.149071,,,0,,,0,,
66,,Arjan Garh,,28.48082,77.12587,,,0,,,0,,
67,,Gurudronacharya,,28.482075,77.102219,,,0,,,0,,
68,,Sikanderpur,,28.48127214352589,77.09299601303587,,,0,,,0,,
69,,MG Road,,28.47954637399366,77.07989815220722,,,0,,,0,,
70,,IFFCO Chowk,,28.472137,77.072502,,,0,,,0,,
71,,Huda City Centre,,28.459118,77.072586,,,0,,,0,,
72,,Vaishali,,28.650059,77.337608,,,0,,,0,,
73,,Kaushambi,,28.645428,77.322273,,,0,,,0,,
74,,Anand Vihar,,28.64663565781942,77.31549288769283,,,0,,,0,,
75,,Karkarduma,,28.6493849629739,77.30606243868829,,,0,,,0,,
76,,Preet Vihar,,28.641352,77.295158,,,0,,,0,,
77,,Nirman Vihar,,28.637049,77.287872,,,0,,,0,,
78,,Laxmi Nagar,,28.629843,77.276428,,,0,,,0,,
79,,Noida City Centre,,28.574593,77.356117,,,0,,,0,,
80,,Golf Course,,28.567383301352784,77.34632575202428,,,0,,,0,,
81,,Botanical Garden,,28.563934552185067,77.33439597099496,,,0,,,0,,
82,,Noida Sec -18,,28.570843,77.326088,,,0,,,0,,
83,,Noida Sec -16,,28.577921,77.318115,,,0,,,0,,
84,,Noida Sec -15,,28.585018,77.311584,,,0,,,0,,
85,,New Ashok Nagar,,28.58847,77.30146,,,0,,,0,,
86,,Mayur Vihar Ext,,28.594124,77.294495,,,0,,,0,,
87,,Mayur Vihar-I,,28.60364485862199,77.29092370599025,,,0,,,0,,
88,,Akshardham,,28.618364,77.279816,,,0,,,0,,
89,,Yamuna Bank,,28.623178,77.267937,,,0,,,0,,
90,,Indraprastha,,28.620272,77.250076,,,0,,,0,,
91,,Supreme Court,,28.623438,77.2425,,,0,,,0,,
92,,Mandi House,,28.62558978831039,77.23423165349466,,,0,,,0,,
93,,Barakhamba,,28.629662,77.224876,,,0,,,0,,
94,,RK Ashram Marg,,28.63922535663788,77.20856768121514,,,0,,,0,,
95,,Jhandewalan,,28.644312,77.199791,,,0,,,0,,
96,,Karol Bagh,,28.643925,77.188416,,,0,,,0,,
97,,Rajendra Place,,28.64252098088257,77.1783223456237,,,0,,,0,,
98,,Patel Nagar,,28.645035001762725,77.1693524233503,,,0,,,0,,
99,,Shadipur,,28.651654026979298,77.15831929668366,,,0,,,0,,
100,,Kirti Nagar,,28.654525593611528,77.15135650028259,,,0,,,0,,
101,,Moti Nagar,,28.657858395290432,77.14243701213343,,,0,,,0,,
102,,Ramesh Nagar,,28.652809,77.131462,,,0,,,0,,
103,,Rajouri Garden,,28.651202101134405,77.12427114745412,,,0,,,0,,
104,,Tagore Garden,,28.643795,77.112747,,,0,,,0,,
105,,Subash Nagar,,28.640463581888355,77.10519523216267,,,0,,,0,,
106,,Tilak Nagar,,28.636568,77.096336,,,0,,,0,,
107,,Janak Puri East,,28.633121,77.086578,,,0,,,0,,
108,,Janak Puri West,,28.628914092232502,77.07795552831121,,,0,,,0,,
109,,Uttam Nagar East,,28.624826972843664,77.06527335676004,,,0,,,0,,
110,,Uttam Nagar West,,28.621672,77.055664,,,0,,,0,,
111,,Nawada,,28.620222,77.044991,,,0,,,0,,
112,,Dwarka Mor,,28.619366,77.033188,,,0,,,0,,
113,,Dwarka,,28.61588466713957,77.02241062478302,,,0,,,0,,
114,,Dwarka Sector - 14,,28.602232,77.02594,,,0,,,0,,
115,,Dwarka Sector - 13,,28.59705,77.033043,,,0,,,0,,
116,,Dwarka Sector - 12,,28.592234,77.040558,,,0,,,0,,
117,,Dwarka Sector - 11,,28.58642,77.049255,,,0,,,0,,
118,,Dwarka Sector - 10,,28.581108,77.05719,,,0,,,0,,
119,,Dwarka Sector - 9,,28.574284,77.065086,,,0,,,0,,
120,,Dwarka Sector - 8,,28.56559298119209,77.0670348924294,,,0,,,0,,
121,,Dwarka Sector - 21,,28.551919584433197,77.05856991753984,,,0,,,0,,
122,,ITO,,28.628188969759734,77.24103891151437,,,0,,,0,,
123,,Janpath,,28.62403589909762,77.21926957516925,,,0,,,0,,
124,,Khan Market,,28.6022319378212,77.2291255783032,,,0,,,0,,
125,,Jawahar Lal Nehru Stadium,,28.5882335761135,77.23379376701426,,,0,,,0,,
126,,Jangpura,,28.583047303365134,77.2393108842072,,,0,,,0,,
127,,Lajpat Nagar,,28.570586956145423,77.23640838188795,,,0,,,0,,
128,,Moolchand,,28.564391565059776,77.23425739267141,,,0,,,0,,
129,,Kailash Colony,,28.55532160858451,77.2419893134159,,,0,,,0,,
130,,Nehru Place,,28.551415396986584,77.25174052224091,,,0,,,0,,
131,,Kalkaji Mandir,,28.549532,77.258789,,,0,,,0,,
132,,Govind Puri,,28.544413,77.264259,,,0,,,0,,
133,,Harkesh Nagar Okhla,,28.54318784766776,77.27535467441606,,,0,,,0,,
134,,Jasola-Apollo,,28.538178435016043,77.28324105337624,,,0,,,0,,
135,,Sarita Vihar,,28.528622,77.288345,,,0,,,0,,
136,,Mohan Estate,,28.51959,77.294518,,,0,,,0,,
137,,Tughlakabad Station,,28.502554315346504,77.29938749747389,,,0,,,0,,
138,,Badarpur Border,,28.493271591667487,77.30301328434302,,,0,,,0,,
139,,Sarai,,28.47794,77.304932,,,0,,,0,,
140,,NHPC Chowk,,28.457731348420754,77.30736105044816,,,0,,,0,,
141,,Mewala Maharajpur,,28.4485,77.308098,,,0,,,0,,
142,,Sector-28,,28.438204355690218,77.30907681984158,,,0,,,0,,
143,,Badkal Mor,,28.422707,77.310234,,,0,,,0,,
144,,Old Faridabad,,28.412172,77.311272,,,0,,,0,,
145,,Neelam Chowk Ajronda,,28.39764839334984,77.31237112263568,,,0,,,0,,
146,,Bata Chowk,,28.385946036793765,77.31343573189716,,,0,,,0,,
147,,Escorts Mujesar,,28.370199,77.315002,,,0,,,0,,
148,,Sikanderpur (Rapid Metro),,28.480989232420384,77.09442830539834,,,0,,,0,,
149,,Phase 2 (Rapid Metro),,28.487514855695668,77.09301793265783,,,0,,,0,,
150,,Belvedere Towers (Rapid Metro),,28.492065,77.088142,,,0,,,0,,
151,,Cyber City (Rapid Metro),,28.49805213132761,77.08916578393067,,,0,,,0,,
152,,Moulsari Avenue (Rapid Metro),,28.500800607865745,77.09462744475162,,,0,,,0,,
153,,Phase 3 (Rapid Metro),,28.49349317965224,77.09364120080193,,,0,,,0,,
154,,IGI Airport,,28.554869,77.087921,,,0,,,0,,
155,,Delhi Aerocity,,28.548792,77.120743,,,0,,,0,,
156,,Dhaula Kuan,,28.591776,77.161545,,,0,,,0,,
157,,Shivaji Stadium,,28.628885840801377,77.2112714175978,,,0,,,0,,
158,,Delhi Gate,,28.639215940420275,77.24078735613436,,,0,,,0,,
159,,Jama Masjid,,28.650011078900725,77.23767504994646,,,0,,,0,,
160,,Lal Quila,,28.657576,77.236595,,,0,,,0,,
161,,Okhla Bird Sanctuary,,28.552816,77.321564,,,0,,,0,,
162,,Kalindi Kunj,,28.542835,77.310173,,,0,,,0,,
163,,Jasola Vihar Shaheen Bagh,,28.546005,77.296715,,,0,,,0,,
164,,Okhla Vihar,,28.561255,77.291916,,,0,,,0,,
165,,Jamia Millia Islamia,,28.562944,77.286209,,,0,,,0,,
166,,Sukhdev Vihar,,28.559887,77.275116,,,0,,,0,,
167,,Okhla NSIC,,28.554575,77.26487,,,0,,,0,,
168,,Phase-I (Rapid Metro),,28.47142639136275,77.09394043085233,,,0,,,0,,
169,,Sector 42-43 (Rapid Metro),,28.457424793063577,77.09695472849135,,,0,,,0,,
170,,Sector 53-54 (Rapid Metro),,28.446374057987597,77.1004685903172,,,0,,,0,,
171,,Sector 54 Chowk (Rapid Metro),,28.43301541808908,77.10492773222778,,,0,,,0,,
172,,Sector 55-56 (Rapid Metro),,28.423344446329637,77.10511942500443,,,0,,,0,,
173,,Majlis Park,,28.724157,77.182068,,,0,,,0,,
174,,Shalimar Bagh,,28.70182,77.165184,,,0,,,0,,
175,,Shakurpur,,28.685781,77.149651,,,0,,,0,,
176,,Punjabi Bagh West,,28.672747,77.139183,,,0,,,0,,
177,,ESI Basai Darapur,,28.658159,77.127319,,,0,,,0,,
178,,Mayapuri,,28.637098,77.129738,,,0,,,0,,
179,,Naraina Vihar,,28.624121,77.136482,,,0,,,0,,
180,,Delhi Cantt.,,28.608641,77.140373,,,0,,,0,,
181,,Durgabai Deshmukh South Campus,,28.589376,77.169518,,,0,,,0,,
182,,Nehru Enclave,,28.545856,77.25116,,,0,,,0,,
183,,Greater Kailash,,28.541836,77.238243,,,0,,,0,,
184,,Chirag Delhi,,28.541229,77.229385,,,0,,,0,,
185,,Panchsheel Park,,28.542339,77.220512,,,0,,,0,,
186,,IIT,,28.547000119674248,77.19455788261095,,,0,,,0,,
187,,RK Puram,,28.55037403022561,77.18553650265056,,,0,,,0,,
188,,Munirka,,28.55689064916408,77.17507802397655,,,0,,,0,,
189,,Vasant Vihar,,28.55780944585445,77.16113034955782,,,0,,,0,,
190,,Shankar Vihar,,28.560787,77.140442,,,0,,,0,,
191,,Terminal 1- IGI Airport,,28.56484857594992,77.12268531389608,,,0,,,0,,
192,,Sadar Bazar Contonment,,28.577108,77.111305,,,0,,,0,,
193,,Palam,,28.589067,77.082954,,,0,,,0,,
194,,Dashrath Puri,,28.601817477449053,77.08236306962384,,,0,,,0,,
195,,Dabri Mor - Janakpuri South,,28.615715137401214,77.08519130133762,,,0,,,0,,
196,,Mundka Industrial Area (M.I.A),,28.683472240120317,77.01712425112844,,,0,,,0,,
197,,Ghevra Metro station,,28.685237020856466,76.99616444639987,,,0,,,0,,
198,,Tikri Kalan,,28.686899,76.977249,,,0,,,0,,
199,,Tikri Border,,28.687876,76.963783,,,0,,,0,,
200,,Pandit Shree Ram Sharma,,28.689213,76.951088,,,0,,,0,,
201,,Bahadurgarh City,,28.690784,76.935265,,,0,,,0,,
202,,Brigadier Hoshiyar Singh,,28.697428,76.919128,,,0,,,0,,
203,,Sir Vishweshwaraiah Moti Bagh,,28.578529,77.175713,,,0,,,0,,
204,,Bhikaji Cama Place,,28.570208,77.187866,,,0,,,0,,
205,,Sarojini Nagar,,28.570208,77.187866,,,0,,,0,,
206,,South Extension,,28.568570549504507,77.22058637152446,,,0,,,0,,
207,,Trilokpuri Sanjay Lake,,28.613506,77.308678,,,0,,,0,,
208,,East Vinod Nagar - Mayur Vihar-II,,28.620052,77.305588,,,0,,,0,,
209,,Mandawali - West Vinod Nagar,,28.624861,77.304146,,,0,,,0,,
210,,IP Extension,,28.631599,77.310898,,,0,,,0,,
211,,Karkarduma Court,,28.653631179650404,77.29576121485367,,,0,,,0,,
212,,Krishna Nagar,,28.65782,77.290306,,,0,,,0,,
213,,East Azad Nagar,,28.665043,77.284599,,,0,,,0,,
214,,Jafrabad,,28.68270043333112,77.27479769607852,,,0,,,0,,
215,,Maujpur - Babarpur,,28.692065265597048,77.27971100404427,,,0,,,0,,
216,,Gokulpuri,,28.702417371569712,77.28613821652284,,,0,,,0,,
217,,Johri Enclave,,28.712871959173818,77.29014085502253,,,0,,,0,,
218,,Shiv Vihar,,28.7213778913623,77.28947398259017,,,0,,,0,,
219,,Sant Surdas (Sihi),,28.354666,77.316261,,,0,,,0,,
220,,Raja Nahar Singh,,28.339991270803807,77.31645029493983,,,0,,,0,,
221,,Vinobapuri,,28.565870953951283,77.24930055106176,,,0,,,0,,
222,,Ashram,,28.5724290134831,77.25857491874663,,,0,,,0,,
223,,Sarai Kale Khan - Nizamuddin,,28.58875171828189,77.25727089248282,,,0,,,0,,
224,,Mayur Vihar Pocket 1,,28.605896073177547,77.29869219568954,,,0,,,0,,
225,,Shaheed Sthal (New Bus Adda),,28.67064727358873,77.41546186007561,,,0,,,0,,
226,,Hindon River,,28.673508,77.40654,,,0,,,0,,
227,,Arthala,,28.67699641657572,77.39189079891585,,,0,,,0,,
228,,Mohan Nagar,,28.67856,77.384209,,,0,,,0,,
229,,Shyam Park,,28.678217,77.370911,,,0,,,0,,
230,,Major Mohit Sharma Rajender Nagar,,28.677598835656028,77.35811601104905,,,0,,,0,,
231,,Raj Bagh,,28.677122,77.346466,,,0,,,0,,
232,,Shaheed Nagar,,28.676615,77.333809,,,0,,,0,,
233,,Noida Sec-34,,28.580229,77.363518,,,0,,,0,,
234,,Noida Sec-52,,28.586849,77.372749,,,0,,,0,,
235,,Noida Sec-61,,28.597677,77.372368,,,0,,,0,,
236,,Noida Sec-59,,28.6065177389905,77.37268652960307,,,0,,,0,,
237,,Noida Sec-62,,28.616991,77.373611,,,0,,,0,,
238,,Noida Electronic City,,28.628685,77.375229,,,0,,,0,,
239,,Nangli,,28.61722,77.010345,,,0,,,0,,
240,,Najafgarh,,28.612428090049605,76.9865182376769,,,0,,,0,,
241,,Dhansa Bus Stand,,28.611914773941457,76.97854579774383,,,0,,,0,,
500,,Noida Sector 51,,28.585718195119057,77.37525803686594,,,0,,,0,,
501,,Noida Sector 50,,28.574547,77.378357,,,0,,,0,,
502,,Noida Sector 76,,28.565445,77.37973,,,0,,,0,,
503,,Noida Sector 101,,28.556065,77.385056,,,0,,,0,,
504,,Noida Sector 81,,28.549259,77.390099,,,0,,,0,,
505,,NSEZ,,28.532248,77.394951,,,0,,,0,,
506,,Noida Sector 83,,28.522284,77.396477,,,0,,,0,,
507,,Noida Sector 137,,28.510817,77.403625,,,0,,,0,,
508,,Noida Sector 142,,28.498999,77.412567,,,0,,,0,,
509,,Noida Sector 143,,28.494246,77.422318,,,0,,,0,,
510,,Noida Sector 144,,28.486376,77.432968,,,0,,,0,,
511,,Noida Sector 145,,28.47913,77.442307,,,0,,,0,,
512,,Noida Sector 146,,28.468822,77.455101,,,0,,,0,,
513,,Noida Sector 147,,28.4594,77.465965,,,0,,,0,,
514,,Noida Sector 148,,28.448021,77.476692,,,0,,,0,,
515,,Knowledge Park,,28.456865,77.500298,,,0,,,0,,
516,,Pari Chowk,,28.463331,77.508308,,,0,,,0,,
517,,Alpha 1,,28.470879,77.512718,,,0,,,0,,
518,,Delta 1,,28.478374,77.525581,,,0,,,0,,
519,,GNIDA Office,,28.484531,77.536621,,,0,,,0,,
520,,Depot Station,,28.488651,77.544075,,,0,,,0,,
